[
    {
        "categoryName": "Grocery",
        "parentId" : "5e492605b4103e6012a9829e",
        "type": 2   ,
        "hasChild" : 0,
        "metaData" : {
            "name": "Sugar",
            "qualification" : "Best",
            "experience" : "10 years",
            "address" : "Balaji nagar",
            "village" : "Kodangal",
            "district" : "Vikarabad",
            "state" : "Telangana",
            "description" : "Best quality sugar on best market price.",
            "specialist" : "38 Rs. per kg",
            "mobile" : "9657063045"
        },
        "location": {
            "type": "Point",
            "coordinates": [30.704649,76.717873]
           }
    },
    {
        "categoryName": "Grocery",
        "parentId" : "5e492605b4103e6012a9829e",
        "type": 2   ,
        "hasChild" : 0,
        "metaData" : {
            "name": "Moong Dal",
            "qualification" : "Premium",
            "experience" : "10 years",
            "address" : "Balaji nagar",
            "village" : "Kodangal",
            "district" : "Vikarabad",
            "state" : "Telangana",
            "description" : "Premium quality moong dal on best market price.",
            "specialist" : "92 Rs. per kg",
            "mobile" : "9657063045"
        },
        "location": {
            "type": "Point",
            "coordinates": [30.704649,76.717873]
           }
    },
    {
        "categoryName": "Grocery",
        "parentId" : "5e492605b4103e6012a9829e",
        "type": 2   ,
        "hasChild" : 1,
        "metaData" : {
            "name": "Ashirwad Aata",
            "qualification" : "Premium",
            "experience" : "10 years",
            "address" : "Balaji nagar",
            "village" : "Kodangal",
            "district" : "Vikarabad",
            "state" : "Telangana",
            "description" : "Premium quality Ashirwad Aata on best market price.",
            "specialist" : "41 Rs. per kg",
            "mobile" : "9657063045"
        },
        "location": {
            "type": "Point",
            "coordinates": [30.704649,76.717873]
           }
    },
    {
        "categoryName": "Grocery",
        "parentId" : "5e492605b4103e6012a9829f",
        "type": 2   ,
        "hasChild" : 0,
        "metaData" : {
            "name": "Sugar",
            "qualification" : "Best",
            "experience" : "10 years",
            "address" : "Balaji nagar",
            "village" : "Kodangal",
            "district" : "Vikarabad",
            "state" : "Telangana",
            "description" : "Best quality sugar on best market price.",
            "specialist" : "38 Rs. per kg",
            "mobile" : "9657063045"
        },
        "location": {
            "type": "Point",
            "coordinates": [30.704649,76.717873]
           }
    },
    {
        "categoryName": "Grocery",
        "parentId" : "5e492605b4103e6012a9829f",
        "type": 2   ,
        "hasChild" : 0,
        "metaData" : {
            "name": "Moong Dal",
            "qualification" : "Premium",
            "experience" : "10 years",
            "address" : "Balaji nagar",
            "village" : "Kodangal",
            "district" : "Vikarabad",
            "state" : "Telangana",
            "description" : "Premium quality moong dal on best market price.",
            "specialist" : "92 Rs. per kg",
            "mobile" : "9657063045"
        },
        "location": {
            "type": "Point",
            "coordinates": [30.704649,76.717873]
           }
    }    
]